[{"Address":"44 W 8th Street","Borough":"Manhattan","ID":1,"Name":"Goodwill: Greenwich Village Store and Donation Center","Phone Number":"212-477-7024","Type":"CLOTHING_CHARITY","Zip Code":10011,"lat":40.73295,"lng":-73.99864},{"Address":"7 W 14th Street","Borough":"Manhattan","ID":2,"Name":"Goodwill: Manhattan 14st Street Store and Donation Center","Phone Number":"212-206-1619","Type":"CLOTHING_CHARITY","Zip Code":10011,"lat":40.73646,"lng":-73.9943},{"Address":"258 Livingston Street","Borough":"Brooklyn","ID":3,"Name":"Goodwill: Brooklyn Livingston Store and Donation Center","Phone Number":"718-923-9037","Type":"CLOTHING_CHARITY","Zip Code":11201,"lat":40.68885,"lng":-73.98407},{"Address":"220 E 23rd Street","Borough":"Manhattan","ID":4,"Name":"Goodwill: Manhattan 23rd Street Store and Donation Center","Phone Number":"212-447-7270","Type":"CLOTHING_CHARITY","Zip Code":10010,"lat":40.7382599,"lng":-73.9822},{"Address":"103 W 25th Street","Borough":"Manhattan","ID":5,"Name":"Goodwill: Chelsea 25th Street Store and Donation Center","Phone Number":"646-638-1725","Type":"CLOTHING_CHARITY","Zip Code":10001,"lat":40.74484,"lng":-73.99187},{"Address":"1114 1st Avenue","Borough":"Manhattan","ID":6,"Name":"Goodwill: Manhattan 61st Street Store and Donation Center","Phone Number":"212-355-5206","Type":"CLOTHING_CHARITY","Zip Code":10065,"lat":40.76092,"lng":-73.96079},{"Address":"47-47 Van Dam Street","Borough":"Long Island City, NY","ID":7,"Name":"Goodwill: Queens Van Dam Outlet Store and Donation Center","Phone Number":"718-392-0125","Type":"CLOTHING_CHARITY","Zip Code":11101,"lat":40.7419677,"lng":-73.9339291},{"Address":"157 West 72nd Street","Borough":"Manhattan","ID":8,"Name":"Goodwill: Manhattan West 72nd Street Store and Donation Center","Phone Number":"212-799-2723","Type":"CLOTHING_CHARITY","Zip Code":10023,"lat":40.77837,"lng":-73.98065},{"Address":"217 W 79th Street","Borough":"Manhattan","ID":9,"Name":"Goodwill: Manhattan 79th Street Store and Donation Center","Phone Number":"212-874-5050","Type":"CLOTHING_CHARITY","Zip Code":10024,"lat":40.78365,"lng":-73.97909},{"Address":"1704 2nd Avenue","Borough":"Manhattan","ID":10,"Name":"Goodwill: Manhattan Stuyvesant Store and Donation Center","Phone Number":"212-831-1830","Type":"CLOTHING_CHARITY","Zip Code":10128,"lat":40.7793,"lng":-73.9503},{"Address":"4-21 27th Avenue","Borough":"Astoria, NY","ID":11,"Name":"Goodwill HQ and Donated Goods Processing Center","Phone Number":"718-728-5400","Type":"CLOTHING_CHARITY","Zip Code":11102,"lat":40.77489,"lng":-73.93244},{"Address":"2231 3rd Avenue","Borough":"Manhattan","ID":12,"Name":"Goodwill: East Harlem Third Avenue Store and Donation Center","Phone Number":"212-410-0973","Type":"CLOTHING_CHARITY","Zip Code":10035,"lat":40.80135,"lng":-73.9371},{"Address":"2196 5th Avenue","Borough":"Manhattan","ID":13,"Name":"Goodwill: Harlem Fifth Avenue Store and Donation Center","Phone Number":"212-862-0020","Type":"CLOTHING_CHARITY","Zip Code":10037,"lat":40.81234,"lng":-73.93818},{"Address":"512 W 181st Street","Borough":"Manhattan","ID":14,"Name":"Goodwill: Washington Heights Store and Donation Center","Phone Number":"212-923-7910","Type":"CLOTHING_CHARITY","Zip Code":10033,"lat":40.84842,"lng":-73.9319},{"Address":"142-02 20th Avenue","Borough":"Whitestone, NY","ID":15,"Name":"Goodwill: Whitestone U.S. Post Office Donation Bin","Phone Number":"718-728-5400","Type":"CLOTHING_CHARITY","Zip Code":11351,"lat":40.77962,"lng":-73.82823},{"Address":"8000 Utopia Parkway","Borough":"Jamaica, NY","ID":16,"Name":"Goodwill: Jamaica \u2013 St. John's University Donation Bin","Phone Number":"718-728-5400","Type":"CLOTHING_CHARITY","Zip Code":11439,"lat":40.7255042,"lng":-73.7917967},{"Address":"700 Magnolia Boulevard","Borough":"Long Beach, NY","ID":17,"Name":"Goodwill: Long Beach Recreation Center Bin","Phone Number":"718-728-5400","Type":"CLOTHING_CHARITY","Zip Code":11561,"lat":42.1766099,"lng":-79.4462},{"Address":"100 Pennsylvania Avenue, 3rd Floor","Borough":"Brooklyn","ID":18,"Name":"Family Resource Center","Phone Number":"817-875-0027 ext 206","Type":"CLOTHING_CHARITY","Zip Code":11207,"lat":40.67546,"lng":-73.89698},{"Address":"1200 Lexington Avenue","Borough":"Manhattan","ID":19,"Name":"Housing Works: Upper East Side Thrift Shop","Phone Number":"1-888- HW-DONATE","Type":"CLOTHING_CHARITY","Zip Code":10028,"lat":40.77657,"lng":-73.95789},{"Address":"424 7th Avenue","Borough":"Brooklyn","ID":20,"Name":"Housing Works: South Slope Thrift Ship","Phone Number":"1-888- HW-DONATE","Type":"CLOTHING_CHARITY","Zip Code":11215,"lat":40.7506708,"lng":-73.9910198},{"Address":"1730 2nd Avenue","Borough":"Manhattan","ID":21,"Name":"Housing Works: Yorkville Thrift Shop (Second Avenue and 90th Street)","Phone Number":"212-722-8306","Type":"CLOTHING_CHARITY","Zip Code":10128,"lat":40.78026,"lng":-73.94978},{"Address":"130 Crosby Street","Borough":"Manhattan","ID":22,"Name":"Housing Works: Soho Thrift Shop","Phone Number":"646-786-1200","Type":"CLOTHING_CHARITY","Zip Code":10012,"lat":40.7247,"lng":-73.99639},{"Address":"1222 2nd Avenue","Borough":"Manhattan","ID":23,"Name":"Housing Works: 2nd Ave and 64th Thrift Shop","Phone Number":"646-975-5905","Type":"CLOTHING_CHARITY","Zip Code":10065,"lat":40.7636899,"lng":-73.96142},{"Address":"306 Columbus Avenue","Borough":"Manhattan","ID":24,"Name":"Housing Works: Columbus and 74th Thrift Shop","Phone Number":"212-579-7566","Type":"CLOTHING_CHARITY","Zip Code":10023,"lat":40.7792699,"lng":-73.97784},{"Address":"143 W 17th Street","Borough":"Manhattan","ID":25,"Name":"Housing Works: Chelsea Thrift Shop","Phone Number":"718-838-5050","Type":"CLOTHING_CHARITY","Zip Code":10011,"lat":40.74009,"lng":-73.99715},{"Address":"245 W 10th Street","Borough":"Manhattan","ID":26,"Name":"Housing Works: West Village Thrift Shop","Phone Number":"212-352-1618","Type":"CLOTHING_CHARITY","Zip Code":10014,"lat":40.73389,"lng":-74.00592},{"Address":"119 Chambers Street","Borough":"Manhattan","ID":27,"Name":"Housing Works: Tribeca Thrift Shop","Phone Number":"212-732-0584","Type":"CLOTHING_CHARITY","Zip Code":10007,"lat":40.71531,"lng":-74.0085299},{"Address":"266 5th Avenue","Borough":"Brooklyn","ID":28,"Name":"Park Slope Thrift Shop","Phone Number":"718-636-2271","Type":"CLOTHING_CHARITY","Zip Code":11215,"lat":40.7452019,"lng":-73.9871101},{"Address":"157 East 23rd Street","Borough":"Manhattan","ID":29,"Name":"Gramercy Thrift Shop","Phone Number":"212-529-5955","Type":"CLOTHING_CHARITY","Zip Code":10010,"lat":40.73926,"lng":-73.98376},{"Address":"732 9th Avenue","Borough":"Manhattan","ID":30,"Name":"Hell's Kitchen Thrift Shop","Phone Number":"646-963-2665","Type":"CLOTHING_CHARITY","Zip Code":10019,"lat":40.7631851,"lng":-73.9889634},{"Address":"2569 Broadway","Borough":"Manhattan","ID":31,"Name":"Broadway and 96th Thrift Shop","Phone Number":"212-222-3550","Type":"CLOTHING_CHARITY","Zip Code":10036,"lat":40.79505,"lng":-73.97183},{"Address":"90 Lafayette Street","Borough":"Manhattan","ID":32,"Name":"NYC Rescue Mission","Phone Number":"212-226-6214 ext 134","Type":"CLOTHING_CHARITY","Zip Code":10013,"lat":40.71752,"lng":-74.00156},{"Address":"305 7th Avenue, 13th Floor","Borough":"Manhattan","ID":33,"Name":"Positive Step","Phone Number":"212-645-3444","Type":"CLOTHING_CHARITY","Zip Code":10001,"lat":40.74665,"lng":-73.99338},{"Address":"536 W 46th Street","Borough":"Manhattan","ID":34,"Name":"Salvation Army Family Store and Donation Center","Phone Number":"800-728-7825","Type":"CLOTHING_CHARITY","Zip Code":10036,"lat":40.76288,"lng":-73.9955},{"Address":"268 W 96th Street","Borough":"Manhattan","ID":36,"Name":"Salvation Army Family Store","Phone Number":"800-728-7825","Type":"CLOTHING_CHARITY","Zip Code":10025,"lat":40.79487,"lng":-73.97272},{"Address":"208 E 23rd Street","Borough":"Manhattan","ID":37,"Name":"Salvation Army Store","Phone Number":"212-532-8115","Type":"CLOTHING_CHARITY","Zip Code":10010,"lat":40.7383558,"lng":-73.9823982},{"Address":"220 E 23rd Street","Borough":"Manhattan","ID":38,"Name":"Salvation Army Family Store","Phone Number":"800-728-7825","Type":"CLOTHING_CHARITY","Zip Code":10010,"lat":40.7382599,"lng":-73.9822},{"Address":"120 West 14th Street","Borough":"Manhattan","ID":39,"Name":"Salvation Army Greater New York Divisional Headquarters","Phone Number":"212-337-7200","Type":"CLOTHING_CHARITY","Zip Code":10011,"lat":40.73783,"lng":-73.99833},{"Address":"112 4th Avenue","Borough":"Manhattan","ID":40,"Name":"Salvation Army Store","Phone Number":"212-673-2741","Type":"CLOTHING_CHARITY","Zip Code":10003,"lat":40.73261,"lng":-73.99046},{"Address":"34-02 Steinway Street","Borough":"Manhattan","ID":41,"Name":"Salvation Army Store","Phone Number":"718-472-2414","Type":"CLOTHING_CHARITY","Zip Code":11101,"lat":40.75665,"lng":-73.92136},{"Address":"45-18 Broadway","Borough":"Long Island City, NY","ID":42,"Name":"Salvation Army Astoria Corps","Phone Number":"718-821-9046","Type":"CLOTHING_CHARITY","Zip Code":11103,"lat":40.7568472,"lng":-73.9148049},{"Address":"30-11 61st Street","Borough":"Woodside, NY","ID":43,"Name":"Salvation Army Family Store","Phone Number":"800-728-7825","Type":"CLOTHING_CHARITY","Zip Code":11377,"lat":40.6425636,"lng":-74.0231146},{"Address":"425 E 159th Street","Borough":"Bronx","ID":44,"Name":"Salvation Army Bronx Citadel","Phone Number":"718-665-8472","Type":"CLOTHING_CHARITY","Zip Code":10451,"lat":40.8227,"lng":-73.91341},{"Address":"937 Broadway","Borough":"Brooklyn","ID":45,"Name":"Salvation Army Family Store","Phone Number":"800-728-7825","Type":"CLOTHING_CHARITY","Zip Code":11206,"lat":40.7404025,"lng":-73.9896314},{"Address":"436 Atlantic Avenue","Borough":"Brooklyn","ID":46,"Name":"Salvation Army Family Store","Phone Number":"800-728-7825","Type":"CLOTHING_CHARITY","Zip Code":11217,"lat":40.68639,"lng":-73.98386},{"Address":"1294 Southern Blvd","Borough":"Bronx","ID":47,"Name":"Salvation Army Family Store","Phone Number":"800-728-7825","Type":"CLOTHING_CHARITY","Zip Code":10459,"lat":40.83064,"lng":-73.89155},{"Address":"22 Quincy Street","Borough":"Brooklyn","ID":48,"Name":"Salvation Army Brooklym Adult Rehabilitation Center and Family Store #1","Phone Number":"718-622-7166","Type":"CLOTHING_CHARITY","Zip Code":11238,"lat":40.6857,"lng":-73.96054},{"Address":"4109 Park Avenue","Borough":"Bronx","ID":49,"Name":"Salvation Army Warehouse","Phone Number":"718-583-6508","Type":"CLOTHING_CHARITY","Zip Code":10457,"lat":40.84548,"lng":-73.90089},{"Address":"4133 Park Avenue","Borough":"Bronx","ID":50,"Name":"Salvation Army Bronx Adult Rehabilitation Center","Phone Number":"800-728-7825","Type":"CLOTHING_CHARITY","Zip Code":10457,"lat":40.84604,"lng":-73.9008},{"Address":"1243 Fulton Street","Borough":"Brooklyn","ID":51,"Name":"Salvation Army Family Store","Phone Number":"800-728-7825","Type":"CLOTHING_CHARITY","Zip Code":11216,"lat":40.68066,"lng":-73.9517599},{"Address":"73-26 Metropolitan Avenue","Borough":"Middle Village, NY","ID":52,"Name":"Salvation Army Family Store","Phone Number":"800-728-7825","Type":"CLOTHING_CHARITY","Zip Code":11379,"lat":40.71258,"lng":-73.87859},{"Address":"2359 Jerome Avenue","Borough":"Bronx","ID":53,"Name":"Salvation Army Family Store","Phone Number":"800-728-7825","Type":"CLOTHING_CHARITY","Zip Code":10468,"lat":40.86025,"lng":-73.9029599},{"Address":"142-50 32nd Avenue","Borough":"Manhattan","ID":54,"Name":"Salvation Army Flushing Corps","Phone Number":"929-422-6325","Type":"CLOTHING_CHARITY","Zip Code":11354,"lat":40.76905,"lng":-73.82483},{"Address":"2441 Boston Road","Borough":"Manhattan","ID":55,"Name":"Salvation Army Store","Phone Number":"718-325-5810","Type":"CLOTHING_CHARITY","Zip Code":10467,"lat":40.86205,"lng":-73.8670099},{"Address":"6822 3rd Avenue","Borough":"Brooklyn","ID":56,"Name":"Salvation Army Family Store and Donation Center","Phone Number":"718-833-6894","Type":"CLOTHING_CHARITY","Zip Code":11220,"lat":40.63618,"lng":-74.02604},{"Address":"148-15 Archer Avenue","Borough":"Jamaica, NY","ID":57,"Name":"Salvation Army Family Store","Phone Number":"800-728-7825","Type":"CLOTHING_CHARITY","Zip Code":11435,"lat":40.70127,"lng":-73.80556},{"Address":"3612 Nostrand Avenue","Borough":"Brooklyn","ID":58,"Name":"Salvation Army Family Store","Phone Number":"800-728-7825","Type":"CLOTHING_CHARITY","Zip Code":11229,"lat":40.59573,"lng":-73.94116},{"Address":"493 Mosel Avenue","Borough":"Staten Island","ID":59,"Name":"Salvation Army Family Store","Phone Number":"800-728-7825","Type":"CLOTHING_CHARITY","Zip Code":10304,"lat":40.60525,"lng":-74.08377},{"Address":"2053 Clove Road","Borough":"Staten Island","ID":60,"Name":"Salvation Army Family Store and Donation Center","Phone Number":"718-442-3179","Type":"CLOTHING_CHARITY","Zip Code":10304,"lat":40.60506,"lng":-74.08369},{"Address":"220-46 Hillside Avenue","Borough":"Queens Village, NY","ID":61,"Name":"Salvation Army Key Food Queens Village","Phone Number":"800-728-7825","Type":"CLOTHING_CHARITY","Zip Code":11427,"lat":40.7304928,"lng":-73.743006},{"Address":"243-20 Braddock Avenue","Borough":"Bellerose, NY","ID":62,"Name":"Salvation Army Living Hope Christian Church SA Donation","Phone Number":"800-728-7825","Type":"CLOTHING_CHARITY","Zip Code":11426,"lat":40.7252259,"lng":-73.7244993},{"Address":"562 North Avenue","Borough":"New Rochelle, NY","ID":63,"Name":"Salvation Army Family Store","Phone Number":"800-728-7825","Type":"CLOTHING_CHARITY","Zip Code":10801,"lat":40.6143852,"lng":-73.9693664},{"Address":"1047 Amsterdam Avenue","Borough":"Manhattan","ID":64,"Name":"St. John the Divine Community Cares","Phone Number":"212-316-7585","Type":"CLOTHING_CHARITY","Zip Code":10025,"lat":40.8037049,"lng":-73.9631203},{"Address":"41 E 11th Street","Borough":"Manhattan","ID":65,"Name":"AIDS Service Center of Lower Manhattan (Men's Clothing Only)","Phone Number":"212-645-0875","Type":"CLOTHING_CHARITY","Zip Code":10003,"lat":40.73316,"lng":-73.99273},{"Address":"227 Bowery","Borough":"Manhattan","ID":66,"Name":"Bowery Mission (Men's Clothing Only)","Phone Number":"212-674-3456","Type":"CLOTHING_CHARITY","Zip Code":10002,"lat":40.72206,"lng":-73.9931299},{"Address":"45-51 Ave. D","Borough":"Manhattan","ID":67,"Name":"Bowery Mission Transitional Center (Men's Clothing Only)","Phone Number":"212-777-3424","Type":"CLOTHING_CHARITY","Zip Code":10009,"lat":40.72155,"lng":-73.97778},{"Address":"127 West 43rd Street, 2nd Floor","Borough":"Manhattan","ID":68,"Name":"Project FIND (Men's Clothing Only)","Phone Number":"212-575-0693","Type":"CLOTHING_CHARITY","Zip Code":10036,"lat":40.7562,"lng":-73.98496},{"Address":"19 Winthrop Street","Borough":"Brooklyn","ID":69,"Name":"CAMBA (Baby + Children Clothing Only)","Phone Number":"718-462-8654","Type":"CLOTHING_CHARITY","Zip Code":11225,"lat":40.6566199,"lng":-73.95948},{"Address":"112 W 34th Street, Suite 1133","Borough":"Manhattan","ID":70,"Name":"Kids in Stressed Situations (Baby + Children Clothing Only)","Phone Number":"212-279-5493","Type":"CLOTHING_CHARITY","Zip Code":10120,"lat":40.75,"lng":-73.98866},{"Address":"7 W 30th Street, 3rd Floor","Borough":"Manhattan","ID":71,"Name":"Room to Grow (Baby + Children Clothing Only)","Phone Number":"212-620-7800","Type":"CLOTHING_CHARITY","Zip Code":10001,"lat":40.74636,"lng":-73.98712}]